[
  {
    "id": -1,
    "date": "*",
    "city": "Home",
    "country": "CH",
    "name": "Casina",
    "lat": 47.38412,
    "lon": 8.50809,
    "type": "HOME"
  },
  {
    "id": 1,
    "date": "18/05/2023",
    "city": "Amsterdam",
    "country": "NL",
    "name": "Ziggo Dome",
    "lat": -26.85948712810109,
    "lon": 27.89905347744243,
    "type": "CONCERT"
  },
  {
    "id": 2,
    "date": "20/05/2023",
    "city": "Anversa",
    "country": "BE",
    "name": "Sportpaleis Antwerpen",
    "lat": 51.23108167045278,
    "lon": 4.441361692345381,
    "type": "CONCERT"
  },
  {
    "id": 3,
    "date": "26/05/2023",
    "city": "Lipsia",
    "country": "DE",
    "name": "Leipziger Festwiese",
    "lat": 51.342931550431956,
    "lon": 12.34959536474302,
    "type": "CONCERT"
  },
  {
    "id": 4,
    "date": "28/05/2023",
    "city": "Bratislava",
    "country": "SK",
    "name": "Národny Futbalovy Stadión",
    "lat": -26.81384403345485,
    "lon": 27.821461486452783,
    "type": "CONCERT"
  },
  {
    "id": 5,
    "date": "11/06/2023",
    "city": "Bern",
    "country": "CH",
    "name": "Wankdorf",
    "lat": 46.96354,
    "lon": 7.46497,
    "type": "CONCERT"
  },
  {
    "id": 6,
    "date": "20/06/2023",
    "city": "Monaco",
    "country": "DE",
    "name": "Olympiastadion",
    "lat": 48.17307995784805,
    "lon": 11.546569522873952,
    "type": "CONCERT"
  },
  {
    "id": 7,
    "date": "29/06/2023",
    "city": "Francoforte",
    "country": "DE",
    "name": "Deutsche Bank Park",
    "lat": 50.06866300896326,
    "lon": 8.646158615469298,
    "type": "CONCERT"
  },
  {
    "id": 8,
    "date": "07/07/2023",
    "city": "Berlin",
    "country": "DE",
    "name": "Olympiastadion",
    "lat": 52.51487301057649,
    "lon": 13.23947730941924,
    "type": "CONCERT"
  },
  {
    "id": 9,
    "date": "14/07/2023",
    "city": "Milano",
    "country": "IT",
    "name": "San Siro",
    "lat": 45.47791884619711,
    "lon": 9.124249633217454,
    "type": "CONCERT"
  },
  {
    "id": 10,
    "date": "16/07/2023",
    "city": "Bologna",
    "country": "IT",
    "name": "Stadio Renato Dall'Ara",
    "lat": -26.87187318514071,
    "lon": 27.86190350477184,
    "type": "CONCERT"
  },
  {
    "id": 11,
    "date": "28/07/2023",
    "city": "Budapest",
    "country": "HU",
    "name": "Puskás Aréna",
    "lat": 47.50293983485959,
    "lon": 19.097193429732318,
    "type": "CONCERT"
  },
  {
    "id": 12,
    "date": "30/07/2023",
    "city": "Praga",
    "country": "CZ",
    "name": "Letnany Airport",
    "lat": -26.84976920567952,
    "lon": 27.876622037815817,
    "type": "CONCERT"
  }
]
